{
"type": "FeatureCollection",
"name": "places",
"crs": { "type": "name", "properties": { "name": "urn:ogc:def:crs:OGC:1.3:CRS84" } },
"features": [
{ "type": "Feature", "properties": { "fid": 26482, "name": "Sargans" }, "geometry": { "type": "Point", "coordinates": [ 9.4454, 47.0454 ] } },
{ "type": "Feature", "properties": { "fid": 26483, "name": "Chur" }, "geometry": { "type": "Point", "coordinates": [ 9.5291, 46.8539 ] } },
{ "type": "Feature", "properties": { "fid": 26484, "name": "St. Gallen" }, "geometry": { "type": "Point", "coordinates": [ 9.3647, 47.4192 ] } },
{ "type": "Feature", "properties": { "fid": 26485, "name": "Winterthur" }, "geometry": { "type": "Point", "coordinates": [ 8.7238, 47.5003 ] } },
{ "type": "Feature", "properties": { "fid": 26486, "name": "Schaffhausen" }, "geometry": { "type": "Point", "coordinates": [ 8.6375, 47.705 ] } },
{ "type": "Feature", "properties": { "fid": 26488, "name": "Basel" }, "geometry": { "type": "Point", "coordinates": [ 7.6088, 47.5424 ] } },
{ "type": "Feature", "properties": { "fid": 26489, "name": "Lugano" }, "geometry": { "type": "Point", "coordinates": [ 8.9469, 46.0055 ] } },
{ "type": "Feature", "properties": { "fid": 26490, "name": "Luzern" }, "geometry": { "type": "Point", "coordinates": [ 8.3102, 47.0502 ] } },
{ "type": "Feature", "properties": { "fid": 26491, "name": "Zofingen" }, "geometry": { "type": "Point", "coordinates": [ 7.9431, 47.288 ] } },
{ "type": "Feature", "properties": { "fid": 26492, "name": "Bern" }, "geometry": { "type": "Point", "coordinates": [ 7.4397, 46.9495 ] } },
{ "type": "Feature", "properties": { "fid": 26493, "name": "Thun" }, "geometry": { "type": "Point", "coordinates": [ 7.6296, 46.7549 ] } },
{ "type": "Feature", "properties": { "fid": 26494, "name": "Fribourg\/Freiburg" }, "geometry": { "type": "Point", "coordinates": [ 7.151, 46.8033 ] } },
{ "type": "Feature", "properties": { "fid": 26496, "name": "Genève" }, "geometry": { "type": "Point", "coordinates": [ 6.1444, 46.2171 ] } },
{ "type": "Feature", "properties": { "fid": 26495, "name": "Lausanne" }, "geometry": { "type": "Point", "coordinates": [ 6.6344, 46.5142 ] } },
{ "type": "Feature", "properties": { "fid": 26497, "name": "Neuchâtel" }, "geometry": { "type": "Point", "coordinates": [ 6.9357, 46.9967 ] } },
{ "type": "Feature", "properties": { "fid": 26498, "name": "La Chaux-de-Fonds" }, "geometry": { "type": "Point", "coordinates": [ 6.826, 47.0986 ] } },
{ "type": "Feature", "properties": { "fid": 26499, "name": "Biel\/Bienne" }, "geometry": { "type": "Point", "coordinates": [ 7.2426, 47.1323 ] } },
{ "type": "Feature", "properties": { "fid": 26500, "name": "Solothurn" }, "geometry": { "type": "Point", "coordinates": [ 7.5427, 47.2042 ] } },
{ "type": "Feature", "properties": { "fid": 26501, "name": "Aarau" }, "geometry": { "type": "Point", "coordinates": [ 8.0527, 47.391 ] } },
{ "type": "Feature", "properties": { "fid": 26502, "name": "Zürich" }, "geometry": { "type": "Point", "coordinates": [ 8.5402, 47.3782 ] } }
]
}
